City_ID,City,Country,Max Temp,Current Description,Lat,Lng,Hotel Name
0,Bethel,US,74.68,clear sky,41.3712,-73.414,Courtyard by Marriott Danbury
4,Banjar,ID,78.66,scattered clouds,-8.19,114.9675,The Hamsa Resort
6,Ferrol,ES,62.67,scattered clouds,43.4832,-8.2369,Parador de Ferrol
7,Praya,CV,77.54,few clouds,14.9215,-23.5087,LT Aparthotel
8,Saint-Philippe,RE,65.75,light rain,-21.3585,55.7679,"Chambres d'hôte ""La Trinité"""
9,Bredasdorp,ZA,53.28,overcast clouds,-34.5322,20.0403,Bredasdorp Country Manor
10,Airai,TL,61.25,broken clouds,-8.9266,125.4092,Juvinal Martin
11,Kawalu,ID,71.26,overcast clouds,-7.3817,108.2082,KOSAN UNGU UNSIK
12,Port Alfred,ZA,65.86,overcast clouds,-33.5906,26.891,The Halyards Hotel
13,Hermanus,ZA,53.91,overcast clouds,-34.4187,19.2345,Misty Waves Boutique Hotel
16,Alyangula,AU,76.95,scattered clouds,-13.8483,136.4192,Groote Eylandt Lodge
18,Ostersund,SE,53.62,light intensity drizzle,63.1792,14.6357,Best Western Hotel Gamla Teatern
23,Bengkulu,ID,74.23,scattered clouds,-3.8004,102.2655,Grage Hotel Bengkulu
25,Atuona,PF,76.89,scattered clouds,-9.8,-139.0333,Villa Enata
30,Rikitea,PF,70.5,few clouds,-23.1203,-134.9692,People ThankYou
31,Puerto Ayora,EC,72.55,scattered clouds,-0.7393,-90.3518,Finch Bay Galapagos Hotel
32,Khatanga,RU,65.35,broken clouds,71.9667,102.5,"Gostinitsa ""Zapolyar'ye"""
33,Avarua,CK,75.25,broken clouds,-21.2078,-159.775,Paradise Inn
38,Fagernes,NO,55.27,moderate rain,60.9858,9.2324,Scandic Valdres
39,Nikolskoye,RU,62.49,scattered clouds,59.7035,30.7861,Tourist House - Sablino
40,Jvari,GE,66.45,few clouds,42.7169,42.052,Savanna House
41,Cidreira,BR,57.16,clear sky,-30.1811,-50.2056,Hotel Castelo
45,Jamestown,US,70.36,clear sky,42.097,-79.2353,Hampton Inn & Suites Jamestown
46,Westport,US,76.28,clear sky,41.1415,-73.3579,The Westport Inn
47,Monforte De Lemos,ES,57.29,scattered clouds,42.5216,-7.5142,Hotel Cardenal
51,Lima,PE,61.9,overcast clouds,-12.0432,-77.0282,Gran Hotel Bolivar Lima
53,Kiama,AU,73.58,clear sky,-34.6833,150.8667,The Sebel Kiama Harbourside
54,Thompson,CA,74.84,overcast clouds,55.7435,-97.8558,Burntwood Hotel
55,Los Llanos De Aridane,ES,70.12,scattered clouds,28.6585,-17.9182,Valle Aridane
56,Vao,NC,66.74,clear sky,-22.6667,167.4833,Hotel Kou-Bugny
57,Saint-Pierre,RE,65.84,clear sky,-21.3393,55.4781,Lindsey Hôtel
60,Inuvik,CA,77.72,overcast clouds,68.3499,-133.7218,Nova Inn Inuvik
63,Maharajganj,IN,78.48,scattered clouds,27.1333,83.5667,Pt. Deen Dayal Hostel
65,Marystown,CA,63.86,scattered clouds,47.1666,-55.1483,Marystown Hotel & Convention Centre
67,Mahebourg,MU,69.26,light rain,-20.4081,57.7,Shandrani Beachcomber Resort & Spa
68,Quimper,FR,58.03,broken clouds,48.0,-4.1,Hôtel Escale Oceania Quimper
69,Severo-Kurilsk,RU,54.37,overcast clouds,50.6789,156.125,Kak Doma
70,Quatre Cocos,MU,69.1,clear sky,-20.2078,57.7625,Sunrise Attitude Hotel
71,Barcelos,PT,61.84,scattered clouds,41.5388,-8.6151,Hotel Do Terço
73,Caravelas,BR,67.66,broken clouds,-17.7125,-39.2481,Pousada dos Navegantes
76,Tuktoyaktuk,CA,50.9,overcast clouds,69.4541,-133.0374,End of The Road Ltd.
77,Khani,GE,62.17,broken clouds,41.9563,42.9566,კურორტი ზეკარი/Resort Zekari
78,Torbat-E Jam,IR,72.54,clear sky,35.244,60.6225,White building
80,Chumikan,RU,50.23,overcast clouds,54.7183,135.315,Fortuna
81,Tawau,MY,78.33,scattered clouds,4.2498,117.8871,Shervinton Executive Boutique Hotel
83,Roald,NO,57.16,light intensity drizzle,62.5833,6.1333,Flem Cabins
85,Shahrud,IR,71.74,scattered clouds,36.4182,54.9763,Royal Hotel
86,Padilla,CO,77.56,broken clouds,3.2204,-76.3139,La Granadina
87,Cape Town,ZA,55.89,broken clouds,-33.9258,18.4232,Southern Sun Waterfront Cape Town
88,Mar Del Plata,AR,50.13,scattered clouds,-38.0023,-57.5575,Gran Hotel Mar del Plata
90,Port-Cartier,CA,65.93,overcast clouds,50.0334,-66.8654,Le Q'Artier
91,Salinopolis,BR,77.43,scattered clouds,-0.6136,-47.3561,Salinas Park Resort Maçarico AP101
92,Peniche,PT,63.88,scattered clouds,39.3558,-9.3811,Hotel Star inn Peniche
93,Vaini,TO,78.96,few clouds,-21.2,-175.2,Keleti Beach Resort
94,Arraial Do Cabo,BR,66.87,overcast clouds,-22.9661,-42.0278,Pousada Porto Praia
99,Mercedes,AR,51.89,few clouds,-34.6515,-59.4307,Posada del Inti Centro
100,Yarim,YE,58.64,few clouds,14.298,44.3779,وليد المسوري ابو اسد
101,Mitsamiouli,KM,76.68,clear sky,-11.3847,43.2844,Foyer ADM
104,Vila,PT,52.93,overcast clouds,42.0304,-8.1588,Hotel Castrum Villae by Walk Hotels
105,Ribeira Grande,PT,71.69,scattered clouds,38.5167,-28.7,Quinta da Meia Eira
106,Barrow,US,50.02,light rain,71.2906,-156.7887,King Eider Inn
107,Chapais,CA,60.03,broken clouds,49.7834,-74.8492,Hôtel Opémiska
109,Husavik,IS,53.67,overcast clouds,66.0449,-17.3389,Bjarnabúð
110,Mashhad,IR,71.74,clear sky,36.297,59.6062,Khanye Sabz Hotel
115,Birin,NP,63.61,overcast clouds,26.8865,88.0718,Sangam hotel and lodge
117,Vuktyl,RU,58.98,overcast clouds,63.8567,57.3094,Mini-Hotel Lokomotiv
118,Souillac,MU,69.37,few clouds,-20.5167,57.5167,Shanti Maurice Resort & Spa
120,Zaragoza,ES,63.12,clear sky,41.6561,-0.8773,Hotel Goya
122,Matara,LK,77.5,scattered clouds,5.9485,80.5353,Amaloh Boutique Resort
123,Tabou,CI,76.33,light rain,4.423,-7.3528,hotêl doufoulougou
124,Betioky,MG,63.48,clear sky,-23.7167,44.3833,Bungalows Acacias Hotel
129,Yarmouth,US,72.45,clear sky,41.7057,-70.2286,Blue Rock Resort
135,Zhanakorgan,KZ,77.67,clear sky,43.9098,67.2495,"""Ақпалас"" қонақ үйі"
136,Margate,GB,62.31,scattered clouds,51.3813,1.3862,Premier Inn Margate hotel
138,Nemuro,JP,65.12,overcast clouds,43.3236,145.575,Hotel Nemuro Kaiyoutei
139,Auki,SB,79.52,light rain,-8.7676,160.7034,Auki Motel
140,Kendari,ID,75.09,overcast clouds,-3.945,122.4989,Hotel Wixel
142,Muros,ES,63.84,overcast clouds,42.7762,-9.0603,Apartment Av. Castelao
146,San Juan De Los Morros,VE,71.87,light rain,9.9115,-67.3538,Hotel La Montaña
147,Kristiansund,NO,53.65,overcast clouds,63.1115,7.732,Thon Hotels Storgata
148,Georgetown,MY,78.73,few clouds,5.4112,100.3354,Cititel Penang
149,Vestmannaeyjar,IS,53.73,light rain,63.4427,-20.2734,Glamping & Camping
151,Tucuman,AR,56.75,clear sky,-26.8241,-65.2226,HOTEL MIAMI
152,Angoche,MZ,73.04,scattered clouds,-16.2325,39.9086,Guest House HESADA
153,Sao Jose Do Rio Pardo,BR,58.73,scattered clouds,-21.5956,-46.8886,Hotel Paulista
154,Kaputa,ZM,66.33,clear sky,-8.4689,29.6619,Chelelwa Charlets
157,Den Helder,NL,63.99,overcast clouds,52.9599,4.7593,Hotel Den Helder
158,Ust-Nera,RU,65.41,broken clouds,64.5667,143.2,Hotel Ust-Nera
159,Shakawe,BW,51.8,clear sky,-18.3667,21.85,Ditlhapi Guest House
160,Toamasina,MG,66.58,light rain,-18.1667,49.3833,Hotel H1
161,Pangnirtung,CA,52.81,overcast clouds,66.1451,-65.7125,Kilabuk Lodge
165,Zhigansk,RU,71.71,few clouds,66.7697,123.3711,Gostinichnyy Kompleks Aylgy
166,Qaqortoq,GL,54.1,broken clouds,60.7167,-46.0333,Hotel Qaqortoq
168,Dalmatovo,RU,63.14,light rain,56.26,62.9362,"Gostinitsa I Obshchezhitiye ""Start-Prodservis"""
169,Broome,US,71.65,clear sky,42.2506,-75.833,Chenango Valley State Park
170,Kodiak,US,60.31,overcast clouds,57.79,-152.4072,Best Western Kodiak Inn And Convention Center
171,Ilulissat,GL,57.22,scattered clouds,69.2167,-51.1,Hotel Arctic
172,Grindavik,IS,53.56,fog,63.8424,-22.4338,Northern Light Inn & Max's Restaurant
173,Padang,ID,75.94,overcast clouds,-0.9492,100.3543,Mercure Padang
174,Cordoba,AR,56.59,clear sky,-31.4135,-64.1811,Hotel Sussex
175,Flinders,AU,73.38,clear sky,-34.5833,150.8552,Shellharbour Resort & Conference Centre
176,Sao Joao Da Barra,BR,66.76,overcast clouds,-21.6403,-41.0511,Pousada Porto De Canoas
177,Verkhnevilyuysk,RU,67.51,clear sky,63.4453,120.3167,Gostinitsa Mila
178,Tan An,VN,78.82,broken clouds,10.5333,106.4167,Khách Sạn Quỳnh Anh
179,Maceio,BR,76.44,scattered clouds,-9.6658,-35.7353,Poutur Pousada
182,East London,ZA,66.09,overcast clouds,-33.0153,27.9116,Tu Casa
183,Aland,IN,72.59,overcast clouds,17.5667,76.5667,ui
186,Miranda De Ebro,ES,57.63,scattered clouds,42.6865,-2.947,Hospedería El Convento
187,Millbury,US,73.85,clear sky,42.194,-71.7601,Red roof
188,Carnarvon,AU,53.67,overcast clouds,-24.8667,113.6333,Hospitality Carnarvon
189,Mae Sai,TH,75.43,overcast clouds,20.4335,99.8762,Piyaporn Hill Paradise Hotel
191,Husyatyn,UA,68.5,broken clouds,49.0726,26.2141,Hotelʹ Zbruch
194,Gweta,BW,55.71,clear sky,-20.1833,25.2333,Gweta Lodge
195,Kotka,FI,61.86,clear sky,60.4664,26.9458,Merikotka
198,Hualmay,PE,64.98,scattered clouds,-11.0964,-77.6139,Hotel Villa Kitzia Huacho
199,Bagdarin,RU,53.11,overcast clouds,54.4333,113.6,Gostevoy Dom Terem
200,Constitucion,CL,52.75,scattered clouds,-35.3333,-72.4167,Hotel Boutique Las Azucenas
201,Port Elizabeth,ZA,59.86,overcast clouds,-33.918,25.5701,39 On Nile Guest House
205,Pilas,ES,76.48,overcast clouds,37.3034,-6.301,Hotel Lince
206,Darhan,MN,59.74,broken clouds,49.4867,105.9228,Buudai Hotel
207,Richards Bay,ZA,60.46,clear sky,-28.783,32.0377,BON Hotel Waterfront Richards Bay
209,Kruisfontein,ZA,56.26,broken clouds,-34.0033,24.7314,Oyster Bay House Rental
210,Qasigiannguit,GL,57.45,scattered clouds,68.8193,-51.1922,Hotel Diskobay
212,Taybad,IR,75.0,clear sky,34.74,60.7756,لی پوش jean center
213,Talnakh,RU,53.22,few clouds,69.4865,88.3972,Talnakh Hotel
214,Komsomolskiy,UZ,76.42,broken clouds,40.4272,71.7189,Ikathouse
216,Moerai,PF,71.69,few clouds,-22.4333,-151.3333,Le Manotel
218,Atherton,GB,60.22,overcast clouds,53.5237,-2.4935,The Lion Inn
219,Torbay,CA,64.58,scattered clouds,47.6666,-52.7314,Gallows Cove
224,Camacha,PT,67.42,broken clouds,33.0833,-16.3333,Hotel Porto Santo & Spa
225,Xining,CN,56.05,clear sky,36.6167,101.7667,Super Leisure Hotel
227,Port-Gentil,GA,76.55,scattered clouds,-0.7193,8.7815,Fengshui Residence
228,Dingle,PH,79.59,overcast clouds,10.9995,122.6711,SEGAYA PROPERTY
230,Jumla,NP,63.93,overcast clouds,29.2747,82.1838,"अन्नी घर, जुम्ला - Anni Ghar"
231,Charagua,BO,65.77,overcast clouds,-19.8,-63.2167,Hotel
232,Yashkul,RU,78.64,scattered clouds,46.1711,45.3435,Bon Voyazh
233,Ponta Do Sol,PT,71.13,few clouds,32.6667,-17.1,Hotel do Campo
235,Vila Franca Do Campo,PT,72.01,scattered clouds,37.7167,-25.4333,Pestana Bahia Praia
236,Mpulungu,ZM,69.03,clear sky,-8.7623,31.1141,Chela moche guest house
237,Koumac,NC,70.45,few clouds,-20.5667,164.2833,Le Monitel
238,Geraldton,AU,61.21,scattered clouds,-28.7667,114.6,Broadwater Mariner Resort
239,Kushtagi,IN,71.29,overcast clouds,15.7667,76.2,ಶ್ರೀ ರಾಮ್ ಫಿಶ್ ಆಕ್ವ್ ರಿಯಂ ಕುಷ್ಟಗಿ
240,Hobyo,SO,75.7,broken clouds,5.3505,48.5268,Halane Hotel and Restaurent
243,Hofn,IS,51.01,few clouds,64.2539,-15.2082,Hótel Höfn
245,Iqaluit,CA,50.7,broken clouds,63.7506,-68.5145,Frobisher Inn
246,Shimorskoye,RU,61.0,broken clouds,55.3244,42.0267,Eksport Agentstvo
247,Cabedelo,BR,74.07,clear sky,-6.9811,-34.8339,Hotel Pigalle
248,Lumphat,KH,73.02,overcast clouds,13.4878,106.9816,Lumphat Homestay
249,Cairns,AU,76.95,scattered clouds,-16.9167,145.7667,Mantra Trilogy Cairns
250,San Quintin,MX,75.79,scattered clouds,30.4833,-115.95,Don Eddie's Sport Fishing Center
254,Korla,CN,70.56,overcast clouds,41.7597,86.1469,Gulisitan Hotel
255,Greece,US,71.67,broken clouds,43.2098,-77.6931,"Homewood Suites by Hilton Rochester/Greece, NY"
256,Lagoa,PT,70.66,overcast clouds,39.05,-27.9833,Casa Das Faias
259,Marienburg,PL,64.89,few clouds,54.0359,19.0266,Hotel Centrum Malbork
260,Khash,IR,77.23,clear sky,28.2211,61.2158,دفتر پیشخوان دولت جمال زهی (خالد)
263,Constantine,DZ,79.9,overcast clouds,36.365,6.6147,Grand Hotel Cirta
265,Faanui,PF,78.03,broken clouds,-16.4833,-151.75,Bora-Bora Pearl Beach Resort & Spa
268,Sopelana,ES,60.08,few clouds,43.3789,-2.9831,Hotel Modus Vivendi
270,Novyy Urengoy,RU,50.72,broken clouds,66.0833,76.6333,Apartments Moy Dom na Gubkina
272,Chipinge,ZW,50.23,scattered clouds,-20.1883,32.6236,Chipinge Breeze Lodge
273,Isangel,VU,72.52,clear sky,-19.55,169.2667,Tanna Lodge
275,Carutapera,BR,75.13,scattered clouds,-1.195,-46.02,Lidera
276,Port Macquarie,AU,64.36,clear sky,-31.4333,152.9167,Rydges Port Macquarie
277,Porto Santo,PT,70.18,broken clouds,33.072,-16.3415,Hotel Porto Santo & Spa
279,Axim,GH,76.01,broken clouds,4.8699,-2.2405,AXIM BEACH RESORT AND SPA
281,Koungou,YT,76.71,broken clouds,-12.7336,45.2042,Villa Netibor
282,Nuuk,GL,52.41,broken clouds,64.1835,-51.7216,Vandrehuset
283,Sandwick,GB,51.62,overcast clouds,60.0,-1.25,Beach House Self-Catering Accomodation
284,Asau,RO,74.32,few clouds,46.4333,26.4,Casa Mika Ciobanus
285,Longhua,CN,79.74,light rain,23.6137,114.1919,Huadu Hotel
288,Arroyo,ES,59.22,scattered clouds,41.6096,-4.7969,Hotel El Jardín de la Abadía
289,Meulaboh,ID,74.82,light rain,4.1363,96.1285,Kost Pria
293,Llangefni,GB,59.11,overcast clouds,53.2556,-4.3106,Bull Hotel
294,Chengde,CN,68.49,scattered clouds,40.9725,117.9361,Super 8 Hotel
295,Bambous Virieux,MU,69.22,light rain,-20.3428,57.7575,Casa Tia Villa
297,Vila Velha,BR,62.55,overcast clouds,-20.3297,-40.2925,Quality Suites Vila Velha
299,Dasoguz,TM,69.75,clear sky,41.8363,59.9666,Ташауз Отел
301,Inirida,CO,71.42,overcast clouds,3.8653,-67.9239,Fuente del Guania Hotel de Lujo
302,Markala,ML,78.53,broken clouds,13.7021,-6.0659,Famille Abdoulaye Bana DIALLO
304,Hervey Bay,AU,71.02,clear sky,-25.2986,152.8535,Shelly Bay Resort
306,Lata,PT,59.05,few clouds,40.1629,-8.3327,Casa Maquia
307,Hambantota,LK,78.91,broken clouds,6.1241,81.1185,Bungalow 63
308,Neepawa,CA,75.81,clear sky,50.2289,-99.4664,"Westway Inn Motel, Neepawa"
309,Saurimo,AO,58.84,clear sky,-9.6608,20.3916,Hotel Kawissa Saurimo
311,San Felipe,VE,74.28,light rain,10.3399,-68.7425,Posada Llovizna Rodríguez
313,Popondetta,PG,79.32,broken clouds,-8.7537,148.2534,Timos Transit House
317,Hamilton,US,74.95,overcast clouds,39.1834,-84.5333,Six Acres Bed & Breakfast
323,Salalah,OM,77.09,light intensity drizzle,17.0151,54.0924,HAMDAN PLAZA HOTEL SALALAH
325,Coquimbo,CL,51.53,clear sky,-29.9533,-71.3436,Punto de encuentro
326,Punta De Bombon,PE,61.32,scattered clouds,-17.1717,-71.7931,Hotel Bedregal
327,Loukhi,RU,51.37,overcast clouds,66.0764,33.0381,Хостел Северяночка
328,Mbandaka,CD,76.59,overcast clouds,0.0487,18.2603,Guest House Epervier
329,Little Current,CA,61.41,overcast clouds,45.9793,-81.9248,Hawberry Motel
330,Polewali,ID,75.97,overcast clouds,-3.4324,119.3435,Lilianto Hotel
331,Sao Sebastiao,BR,58.55,broken clouds,-23.76,-45.4097,Hotel Recanto dos Pássaros
332,Resavica,RS,71.22,scattered clouds,44.0408,21.5816,Hotel Đula
334,Tamale,GH,72.52,overcast clouds,9.4008,-0.8393,Tap Hotel
335,Clarksburg,US,76.73,clear sky,39.2807,-80.3445,Greenbrier Motel & Restaurant
337,Natal,BR,79.45,few clouds,-5.795,-35.2094,Villa Park Hotel | Natal
338,Havre-Saint-Pierre,CA,58.21,overcast clouds,50.2334,-63.5986,Auberge Niapiskau
339,Dauphin,CA,78.08,clear sky,51.1494,-100.0502,Canway Inn & Suites
340,Naze,JP,79.56,overcast clouds,28.3667,129.4833,奄美ポートタワーホテル
343,Ovalle,CL,63.55,scattered clouds,-30.5983,-71.2003,Hotel Altos de Tuqui
344,Bambari,CF,70.29,moderate rain,5.768,20.6757,Hotel-Restaurant BIBICH
345,Parana,AR,57.56,clear sky,-31.732,-60.5238,Howard Johnson by Wyndham Plaza Hotel Mayorazgo
346,San Matias,BO,74.32,clear sky,-16.3667,-58.4,"HOTEL ""SAN JOSE"""
347,Irbeyskoye,RU,56.03,overcast clouds,55.6428,95.4522,"Gostinitsa ""Agul"""
349,Alofi,NU,78.17,moderate rain,-19.0595,-169.9187,Taloa Heights
355,Pombas,CV,73.42,overcast clouds,17.1503,-25.0201,Paul Paradis
357,Saryozek,KZ,58.59,clear sky,44.3583,77.9753,Gostinitsa
358,Aqtobe,KZ,62.69,clear sky,50.2797,57.2072,"Gostinitsa ""Ilek"" G. Aktobe"
359,Rutana,BI,56.66,scattered clouds,-3.8667,30.1,Failles des Allemands
361,Orlik,RU,54.77,light rain,52.5178,99.825,Gostevoy Dom Mini Gostinitsa
364,Banda Aceh,ID,79.99,overcast clouds,5.5577,95.3222,Sulthan Hotel International
366,Nuevo Imperial,PE,64.29,few clouds,-13.0754,-76.3172,Hotel Konford
369,Betare Oya,CM,67.03,light rain,5.6,14.0833,Auberge Tembina Betaré Oya
375,Lugovoy,KZ,66.25,broken clouds,42.9472,72.7644,Ж.Д Вокзал Луговая
376,Nanga Eboko,CM,68.99,overcast clouds,4.6833,12.3667,Motel Papi Palace
378,Boddam,GB,53.71,overcast clouds,57.4667,-1.7833,Palace Hotel
379,Khandyga,RU,66.97,clear sky,62.6667,135.6,Apel'sin
380,Mamburao,PH,79.7,overcast clouds,13.25,120.6667,UPPER(tii)
381,Artigas,UY,51.22,clear sky,-30.4,-56.4667,Hotel Casino San Eugenio del Cuareim
383,Mozarlandia,BR,79.61,scattered clouds,-14.7447,-50.5706,Hotel Santa Mônica
385,Krasnoufimsk,RU,62.69,overcast clouds,56.6059,57.7669,Gostinitsa
387,Saldanha,ZA,58.14,scattered clouds,-33.0117,17.9442,Blue Bay Lodge
388,Great Yarmouth,GB,59.95,scattered clouds,52.6083,1.7305,Comfort Hotel Great Yarmouth
390,Luwuk,ID,78.13,few clouds,-0.9516,122.7875,Hotel Santika Luwuk
391,Sai Buri,TH,76.82,overcast clouds,6.7013,101.6168,ร้าน​ เวดดิ้ง
392,Taltal,CL,62.08,few clouds,-25.4,-70.4833,Residencial Karime
393,Cascais,PT,64.47,clear sky,38.6979,-9.4215,Hotel Vila Galé Cascais
396,Kalemie,CD,69.57,clear sky,-5.9475,29.1947,Mahobilali
398,Sambava,MG,66.65,clear sky,-14.2667,50.1667,Melrose
401,Plettenberg Bay,ZA,60.55,scattered clouds,-34.0527,23.3716,Thanda Vista B&B
402,Vologda,RU,56.59,clear sky,59.2187,39.8886,Gostinitsa Vologdy Sputnik
403,Sokoni,TZ,75.72,light rain,-6.4333,39.55,Ujamaa Beach Resort
405,Winneba,GH,74.73,few clouds,5.3511,-0.6231,Windy Lodge & Beach Resort
407,Bulgan,MN,56.03,broken clouds,48.8125,103.5347,Unitel Булган салбар
408,Santa Cruz,BO,73.45,few clouds,-17.8,-63.1667,Aviador Hotel Boutique
409,Yinchuan,CN,72.77,clear sky,38.4681,106.2731,JJ Inns - Yinchuan New Moon Square Branch
410,Khorinsk,RU,58.06,clear sky,52.1657,109.7726,Uda
411,Hohhot,CN,63.19,clear sky,40.8106,111.6522,Sheraton Hohhot Hotel
414,Buchanan,LR,75.92,moderate rain,5.8808,-10.0467,Kamaneahn Hotel Inc
415,Huadian,CN,75.52,broken clouds,42.9633,126.7478,Huadian Forestry Bureau
416,Yabrud,SY,66.52,clear sky,33.9674,36.6574,المنزل
424,Temiscaming,CA,59.49,overcast clouds,46.7212,-79.0971,Auberge Canadienne
426,Urumqi,CN,65.35,clear sky,43.801,87.6005,Hua Ling Grand Hotel Urumqi
430,Erzin,TR,79.52,clear sky,36.9559,36.2,Artemis Otel
431,Lazi,UA,63.63,scattered clouds,48.0667,24.2333,Olenka
433,Sao Filipe,CV,75.81,broken clouds,14.8961,-24.4956,Hotel Xaguate
436,Nyanza,RW,62.58,broken clouds,-2.3519,29.7509,New Life Motel
437,Fatsa,TR,71.4,clear sky,41.0278,37.5014,Yalcin Resort Hotel
438,Nizhniy Kuranakh,RU,57.83,overcast clouds,58.8353,125.4869,Park Pobedy
439,Killybegs,IE,55.45,overcast clouds,54.6333,-8.45,Tara Hotel
440,Semey,KZ,68.45,broken clouds,50.4111,80.2275,Grand Hotel Semey
441,Itarema,BR,78.73,overcast clouds,-2.9248,-39.9167,"Sea Lounge! Bar, Club & Restaurant"
442,Along,IN,73.87,overcast clouds,28.1667,94.7667,Hotel West
446,Albion,US,76.19,scattered clouds,42.2431,-84.753,Days Inn by Wyndham Albion
447,Loandjili,CG,71.96,clear sky,-4.7561,11.8578,Résidence ARCHANGE
449,Saint-Francois,FR,58.17,overcast clouds,46.4154,3.9054,Manoir Du Bonheur
450,Faya,SA,61.32,overcast clouds,18.3851,42.4509,املاك خالد الشعشوع
451,Aleksandrov Gay,RU,76.08,scattered clouds,50.147,48.5704,Gostinitsa I.p. Yes'kov A.v
452,Sola,VU,77.18,overcast clouds,-13.8833,167.55,Leumerus Bungalows
453,Atasu,KZ,70.88,clear sky,48.6814,71.6433,Dostyk
455,Tieling,CN,74.88,broken clouds,42.2931,123.8414,Tieling 99 Yuejia Business Guest House
457,Boguchany,RU,58.57,overcast clouds,58.3814,97.4531,Uyut
458,Erenhot,CN,62.2,clear sky,43.6475,111.9767,Erenhot Rurouni Youth Hostel
459,San Julian,MX,69.78,broken clouds,21.0167,-102.1667,La Nueva España
460,Neryungri,RU,50.94,overcast clouds,56.6709,124.6491,Pyat' Zvozd
461,San Ramon De La Nueva Oran,AR,61.43,overcast clouds,-23.1322,-64.326,Hotel Residencial Centro
462,Dunedin,NZ,52.81,moderate rain,-45.8742,170.5036,Scenic Hotel Southern Cross
464,Pangai,TO,75.99,light rain,-19.8,-174.35,Ha'apai Beach Resort
466,Machachi,EC,65.7,broken clouds,-0.5,-78.5667,Hotel - Casa del Montañero - Bed & Breakfast - Hostel - Machachi / Cotopaxi
467,Richmond Hill,CA,61.02,overcast clouds,43.8711,-79.4372,Travelodge by Wyndham Richmond Hill
471,Yulara,AU,53.44,scattered clouds,-25.2406,130.9889,Desert Gardens Hotel - Ayers Rock Resort
474,Arrifes,PT,70.05,broken clouds,37.7667,-25.7,Hotel Ponta Delgada
476,Oga,IT,53.64,light rain,46.4631,10.347,QC Terme Bagni di Bormio Bagni Nuovi
478,Ust-Tsilma,RU,55.94,overcast clouds,65.441,52.1498,U Praskov'i
479,Fare,PF,77.29,overcast clouds,-16.7,-151.0167,Maitai Lapita Village Huahine
481,Goderich,CA,73.9,overcast clouds,43.7501,-81.7165,Harmony Inn
482,Buta,CD,68.7,light rain,2.7858,24.73,HOTEL BISO NA BISO
484,Turayf,SA,79.27,clear sky,31.6725,38.6637,Turaif
485,Ruhengeri,RW,61.12,overcast clouds,-1.4998,29.635,Relay's Gorillas Hotel
488,Aklavik,CA,78.44,overcast clouds,68.2191,-135.0107,Aklavik Inn
490,Prince Rupert,CA,59.09,mist,54.3161,-130.3201,Crest Hotel
492,Port Hardy,CA,65.77,broken clouds,50.6996,-127.4199,Airport Inn
493,Dubbo,AU,59.13,clear sky,-32.25,148.6167,Comfort Inn Blue Lagoon
494,Port Hedland,AU,57.25,clear sky,-20.3167,118.5667,The Esplanade Hotel
497,Kapit,MY,73.2,broken clouds,2.0167,112.9333,Hotel Meligai Kapit
498,Bertoua,CM,67.23,light rain,4.5833,13.6833,Hotel De Paris
500,Kiunga,PG,76.01,overcast clouds,-6.1219,141.2906,Airport Lodge Kiunga
501,Rumford,US,71.2,few clouds,44.5537,-70.5509,coastal rentals llc
502,Blankenberge,BE,61.99,scattered clouds,51.3131,3.1323,Hotel Concordia
503,Denpasar,ID,78.46,few clouds,-8.65,115.2167,ASTON Denpasar Hotel & Convention Center
504,Voznesenye,RU,57.67,few clouds,61.0106,35.4781,Guesthouse Jakornaya
505,Krasnoselkup,RU,50.38,scattered clouds,65.7,82.4667,Krasnosel'kupnefteprodukt
506,Nizhniy Ingash,RU,56.3,overcast clouds,56.2,96.53,Gostinitsa Bayazet
507,Manta,EC,73.24,broken clouds,-0.95,-80.7333,Balandra Hotel
508,Miajadas,ES,64.78,clear sky,39.1513,-5.9084,Hotel Triana
510,Batemans Bay,AU,59.09,light rain,-35.7167,150.1833,Batemans Bay Marina Resort
512,Wabash,US,77.41,overcast clouds,40.7978,-85.8205,"Holiday Inn Express & Suites Wabash, an IHG Hotel"
513,Zhangjiakou,CN,66.29,broken clouds,40.81,114.8794,Shell Zhangjiakou City Qiaodong District Ginza Hotel
514,Balikpapan,ID,77.99,light rain,-1.2675,116.8289,ibis Balikpapan
518,San Isidro,PE,63.01,overcast clouds,-12.1167,-77.05,Soul Mate-Inn
519,Zawiercie,PL,67.57,broken clouds,50.4877,19.4168,Hotel Villa Verde 4*
522,Praia Da Vitoria,PT,73.76,overcast clouds,38.7333,-27.0667,Hotel Branco I
523,Allapalli,IN,75.16,overcast clouds,19.4167,80.0667,Hotel IK Residency
525,Nacala,MZ,68.92,clear sky,-14.5428,40.6728,Nacala Plaza Business Design Hotel
526,Pathein,MM,78.49,overcast clouds,16.7833,94.7333,New Pammawaddy Hotel
527,Donetsk,UA,74.73,scattered clouds,48.0,37.8,Park Inn by Radisson Donetsk
528,Namanyere,TZ,61.36,clear sky,-7.5167,31.05,Manyovu Lodge
529,Moron,AR,54.99,scattered clouds,-34.6534,-58.6198,Hotel Morón
532,Altamira,BR,73.36,broken clouds,-3.2033,-52.2064,Requinte Hotel
533,Newport,GB,61.07,few clouds,51.5877,-2.9984,ibis budget Newport
536,Alta Floresta,BR,78.82,few clouds,-9.8756,-56.0861,Floresta Amazonica Hotel
537,Normandin,CA,61.32,overcast clouds,48.8333,-72.5321,Chambres MB Normandin (Lac St -Jean)
538,Mwanza,TZ,68.9,broken clouds,-2.5167,32.9,Gold Crest Hotel
539,Djambala,CG,76.8,overcast clouds,-2.5447,14.7533,Hotel Ravin D'or
540,Makinsk,KZ,64.38,broken clouds,52.6292,70.4169,Bereke
541,Zaton,RU,67.59,clear sky,53.2936,83.8072,Готель «Прага»
543,Inta,RU,53.73,overcast clouds,66.0317,60.1659,Apartments in Inta city
544,Muyezerskiy,RU,52.84,broken clouds,63.9333,31.65,"Gostinitsa Ooo ""Lzkh ""Ledmozerskoye"""
545,Luanda,AO,69.24,clear sky,-8.8368,13.2343,LANDU MARINEZA LUFUANDU TONI
546,Bubaque,GW,77.65,moderate rain,11.2833,-15.8333,"Casa Dora, Bubaque"
547,Waipawa,NZ,51.03,broken clouds,-41.4122,175.5153,Tora Coastal Walk
549,Narsaq,GL,53.82,broken clouds,60.9167,-46.05,Narsaq Kayak Hostel
553,Santa Cruz De Tenerife,ES,75.72,broken clouds,28.4682,-16.2546,Hotel Silken Atlántida Santa Cruz
554,Serzedo,PT,60.3,scattered clouds,41.405,-8.2293,Hotel da Penha
555,Gonbad-E Qabus,IR,78.76,broken clouds,37.25,55.1672,Samin Building
558,Humaita,BR,78.6,clear sky,-7.5061,-63.0208,Corrêa Hotel
561,Afzalpur,IN,74.44,overcast clouds,17.2,76.35,SGK centre Kamat
563,Poum,NC,69.78,few clouds,-20.2333,164.0167,Gîte kajeon
567,Bredy,RU,69.78,scattered clouds,52.4153,60.3411,Individual'nyy Predprinimatel' Rakhmanin Andrey Aleksandrovich
568,Olafsvik,IS,54.25,overcast clouds,64.8945,-23.7142,Hotel Olafsvik
571,Keningau,MY,75.65,few clouds,5.3378,116.1602,Sabindo Hotel
572,Monrovia,LR,75.43,moderate rain,6.3005,-10.7969,Sunset Inn
573,Ponta Delgada,PT,72.32,broken clouds,37.7333,-25.6667,Vila Nova Hotel
574,Omboue,GA,73.78,few clouds,-1.5746,9.2618,Hotel Olako
576,Atikokan,CA,77.04,broken clouds,48.7555,-91.6216,Quetico Inn (formerly Radisson)
577,Coruripe,BR,73.49,scattered clouds,-10.1256,-36.1756,Pousada e Hotel Litoral Sul
578,Sitka,US,64.29,broken clouds,57.0531,-135.33,Westmark Sitka
579,Vad,RU,61.77,scattered clouds,55.5301,44.2114,Riv'yera Rezort Otel'
580,Northam,GB,60.39,few clouds,51.0333,-4.2167,Durrant House Hotel
581,Andreapol,RU,57.96,broken clouds,56.6513,32.2664,Gostevoy Dom Uyut
582,Rongcheng,CN,79.93,light rain,30.634,117.8517,Shell Shandong Liaocheng Development District South Huangshan Road Hotel
583,San Juan,AR,54.05,scattered clouds,-31.5375,-68.5364,Hotel Provincial
584,Bonthe,SL,75.56,overcast clouds,7.5264,-12.505,Bonthe Holiday Village
585,Zaysan,KZ,60.19,clear sky,47.4667,84.8667,Ерлан үй
587,Hokitika,NZ,54.45,overcast clouds,-42.7167,170.9667,Beachfront Hotel Hokitika
590,Aleksandrovsk-Sakhalinskiy,RU,57.61,overcast clouds,50.8975,142.1561,"The hotel ""Three Brothers"""
592,Linxia,CN,63.1,clear sky,35.6003,103.2064,GreenTree Inn Linxia Autonomous Prefecture Linxia Oxford River Avenue Express Hotel
594,Bud,US,75.18,overcast clouds,39.447,-86.1758,Ted McQuinn Trust
595,Namibe,AO,68.11,few clouds,-15.1961,12.1522,Hotel Chik Chik Namibe
596,Burgeo,CA,58.71,few clouds,47.6167,-57.6152,Gillett's Motel
597,Nouadhibou,MR,69.15,clear sky,20.931,-17.0347,El Medina
598,Hauterive,FR,57.96,overcast clouds,46.0901,3.4459,Aletti Palace Hotel
600,Althofen,AT,65.25,light rain,46.8818,14.4676,Hotel-Restaurant Prechtlhof
603,Maragogi,BR,77.65,broken clouds,-9.0122,-35.2225,Salinas do Maragogi All Inclusive Resort
607,Blind River,CA,66.45,overcast clouds,46.1834,-82.9582,Auberge Eldo Inn
608,Talara,PE,68.76,clear sky,-4.5772,-81.2719,Hostal Oro Negro
610,Sovetskiy,RU,55.98,overcast clouds,61.3614,63.5842,Apartment on Kievskaya 29
611,Zunyi,CN,70.59,few clouds,27.6867,106.9072,Bishiluo Hostel
612,Mandalgovi,MN,59.07,clear sky,45.7625,106.2708,В.Ганбат
615,Sebeta,ET,54.93,overcast clouds,8.9167,38.6167,Alem Hotel And Milto Cinema
616,Zhezkazgan,KZ,76.06,clear sky,47.8043,67.7144,Hotel Zumrat
617,Oussouye,SN,77.61,moderate rain,12.485,-16.5469,Auberge du Routard
621,Olga,RU,69.28,overcast clouds,43.7444,135.2892,Gostinitsa Rosmorport.
623,Lamu,KE,71.82,light rain,-2.2717,40.902,Lamu House
625,Nikolsk,RU,64.44,broken clouds,53.7189,46.0712,Гостиница Центральная
626,Sinnamary,GF,79.48,overcast clouds,5.3833,-52.95,ALETHEIA Appartement Sinnamary
628,Fougamou,GA,72.63,scattered clouds,-1.2154,10.5838,Résidence d'Hôtes Bapedy
629,Udachnyy,RU,70.7,clear sky,66.4167,112.4,Severnoye Siyaniye
630,Sioux Lookout,CA,72.37,overcast clouds,50.1001,-91.917,Knobby's Fly-In Camps
631,Maturin,VE,75.25,scattered clouds,9.75,-63.1767,Hotel Residencial La Pichincha
632,Zalaegerszeg,HU,66.11,broken clouds,46.84,16.8439,Apartmanhotel Szent Kristóf
633,Kirksville,US,71.55,overcast clouds,40.1948,-92.5833,Budget Host-Village Inn
635,Kaberamaido,UG,65.73,overcast clouds,1.7389,33.1594,"Little Orchard, Kaberamaido"
636,Sechura,PE,71.69,clear sky,-5.5569,-80.8222,Hospedaje Costa Bella
637,Korsakov,RU,64.24,broken clouds,46.6328,142.7813,Hotel Asino
640,Noshiro,JP,77.67,overcast clouds,40.2039,140.0242,Azuma Ryokan
641,Arinos,BR,71.47,broken clouds,-15.9169,-46.1056,casa do bruno
643,Polyarnyy,RU,52.27,overcast clouds,69.1989,33.4478,Hotel Tatyana
644,Raahe,FI,53.69,scattered clouds,64.6833,24.4833,Hotelli Raahen Hovi
646,Pontianak,ID,76.98,scattered clouds,-0.0333,109.3333,Aston Pontianak Hotel & Convention Center
647,Touros,BR,79.7,overcast clouds,-5.1989,-35.4608,INN NEW HORIZON
650,Wonthaggi,AU,51.44,overcast clouds,-38.6044,145.5913,Wonthaggi Caravans & Trailers
651,Soyo,AO,71.55,clear sky,-6.1349,12.3689,Hotel Mpampa
652,Samarai,PG,78.24,overcast clouds,-10.6167,150.6667,Nuli Sapi
653,Kununurra,AU,67.98,clear sky,-15.7667,128.7333,Hotel Kununurra
654,Labuhan,ID,75.13,broken clouds,-6.8844,112.2051,PT PPI Lamongan Tambak C
655,Bay Roberts,CA,65.34,few clouds,47.5999,-53.2648,Stonewall Inn
657,Seredka,RU,58.75,broken clouds,58.1584,28.1858,Lesnoy Oazis
659,Ca Mau,VN,77.05,broken clouds,9.1769,105.15,Khách Sạn Mường Thanh Luxury Cà Mau
661,Karonga,MW,65.79,scattered clouds,-9.9333,33.9333,Sumuka Inn
662,Luganville,VU,75.65,overcast clouds,-15.5333,167.1667,The Espiritu Hotel
663,Alihe,CN,55.15,overcast clouds,50.5667,123.7167,Alihe Forestry Hotel
664,Puerto Narino,CO,75.15,few clouds,-3.7703,-70.3831,Eware Refugio Amazonico
668,Hakodate,JP,73.0,overcast clouds,41.7758,140.7367,Four Points by Sheraton Hakodate
670,Pisco,PE,64.45,clear sky,-13.7,-76.2167,Hotel San Isidro Oficial
672,Severo-Yeniseyskiy,RU,51.76,scattered clouds,60.3725,93.0408,Aktolik
673,Longkou,CN,74.8,light rain,37.6508,120.3286,Pai Hotel Yantai Longkou City Heping Road
674,Traverse City,US,75.94,broken clouds,44.7631,-85.6206,Bayshore Resort
676,Okitipupa,NG,73.13,overcast clouds,6.5047,4.7839,Coastal Hotel & Suites
677,Atambua,ID,73.58,scattered clouds,-9.1061,124.8925,Pastori 1 Jemaat Polycarpus
678,Ahipara,NZ,58.39,clear sky,-35.1667,173.1667,Ahipara Holiday Park
679,Byron Bay,AU,69.06,clear sky,-28.65,153.6167,Backpackers Inn on the Beach
680,Vilhena,BR,70.72,scattered clouds,-12.7406,-60.1458,Hotel Mirage
